strain_name,latitude,longitude
AAUT01000059,30.688917,-88.050256
AAWE01000257,-19.8305,34.8328
ACHZ01000004,-19.8305,34.8328
CP001485,23.3459300,90.7109300
AAWD01000266,23.885942,45.079162
AE003852,23.6849940,90.3563310
CP000627,20.5936840,78.9628800
ACHX01000008,-0.023559,37.906193
